{"type":"FeatureCollection","features":[{"type":"Feature","properties":{"name":"Indonesia","ISO3166-1-Alpha-3":"IDN","ISO3166-1-Alpha-2":"ID"},"geometry":{"type":"Point","coordinates":[113.933604,0.10630499999999987]}},{"type":"Feature","properties":{"name":"Malaysia","ISO3166-1-Alpha-3":"MYS","ISO3166-1-Alpha-2":"MY"},"geometry":{"type":"Point","coordinates":[114.4032615,3.9390650000000003]}},{"type":"Feature","properties":{"name":"Chile","ISO3166-1-Alpha-3":"CHL","ISO3166-1-Alpha-2":"CL"},"geometry":{"type":"Point","coordinates":[-71.362691,-35.696294]}},{"type":"Feature","properties":{"name":"Bolivia","ISO3166-1-Alpha-3":"BOL","ISO3166-1-Alpha-2":"BO"},"geometry":{"type":"Point","coordinates":[-63.5660765,-16.2885395]}},{"type":"Feature","properties":{"name":"Peru","ISO3166-1-Alpha-3":"PER","ISO3166-1-Alpha-2":"PE"},"geometry":{"type":"Point","coordinates":[-75.01090500000001,-9.1834195]}},{"type":"Feature","properties":{"name":"Argentina","ISO3166-1-Alpha-3":"ARG","ISO3166-1-Alpha-2":"AR"},"geometry":{"type":"Point","coordinates":[-63.617146,-37.088843499999996]}},{"type":"Feature","properties":{"name":"Dhekelia Sovereign Base Area","ISO3166-1-Alpha-3":"-99","ISO3166-1-Alpha-2":"-99"},"geometry":{"type":"Point","coordinates":[33.7977865,35.0284435]}},{"type":"Feature","properties":{"name":"Cyprus","ISO3166-1-Alpha-3":"CYP","ISO3166-1-Alpha-2":"CY"},"geometry":{"type":"Point","coordinates":[32.987337,34.9060505]}},{"type":"Feature","properties":{"name":"India","ISO3166-1-Alpha-3":"IND","ISO3166-1-Alpha-2":"IN"},"geometry":{"type":"Point","coordinates":[82.752828,21.7857005]}},{"type":"Feature","properties":{"name":"China","ISO3166-1-Alpha-3":"CHN","ISO3166-1-Alpha-2":"CN"},"geometry":{"type":"Point","coordinates":[104.18741750000001,36.9038555]}},{"type":"Feature","properties":{"name":"Israel","ISO3166-1-Alpha-3":"ISR","ISO3166-1-Alpha-2":"IL"},"geometry":{"type":"Point","coordinates":[35.068212,31.4482065]}},{"type":"Feature","properties":{"name":"Palestine","ISO3166-1-Alpha-3":"PSE","ISO3166-1-Alpha-2":"PS"},"geometry":{"type":"Point","coordinates":[35.2198445,31.943775]}},{"type":"Feature","properties":{"name":"Lebanon","ISO3166-1-Alpha-3":"LBN","ISO3166-1-Alpha-2":"LB"},"geometry":{"type":"Point","coordinates":[35.8518605,33.871564]}},{"type":"Feature","properties":{"name":"Ethiopia","ISO3166-1-Alpha-3":"ETH","ISO3166-1-Alpha-2":"ET"},"geometry":{"type":"Point","coordinates":[40.4844845,9.1414325]}},{"type":"Feature","properties":{"name":"South Sudan","ISO3166-1-Alpha-3":"SSD","ISO3166-1-Alpha-2":"SS"},"geometry":{"type":"Point","coordinates":[30.021195499999997,7.8531785]}},{"type":"Feature","properties":{"name":"Somalia","ISO3166-1-Alpha-3":"SOM","ISO3166-1-Alpha-2":"SO"},"geometry":{"type":"Point","coordinates":[46.191211499999994,5.146408]}},{"type":"Feature","properties":{"name":"Kenya","ISO3166-1-Alpha-3":"KEN","ISO3166-1-Alpha-2":"KE"},"geometry":{"type":"Point","coordinates":[37.8877435,0.17643600000000026]}},{"type":"Feature","properties":{"name":"Malawi","ISO3166-1-Alpha-3":"MWI","ISO3166-1-Alpha-2":"MW"},"geometry":{"type":"Point","coordinates":[34.283803500000005,-13.258285]}},{"type":"Feature","properties":{"name":"United Republic of Tanzania","ISO3166-1-Alpha-3":"TZA","ISO3166-1-Alpha-2":"TZ"},"geometry":{"type":"Point","coordinates":[34.885212,-6.358551]}},{"type":"Feature","properties":{"name":"Syria","ISO3166-1-Alpha-3":"SYR","ISO3166-1-Alpha-2":"SY"},"geometry":{"type":"Point","coordinates":[39.0502925,34.818974]}},{"type":"Feature","properties":{"name":"Somaliland","ISO3166-1-Alpha-3":"-99","ISO3166-1-Alpha-2":"-99"},"geometry":{"type":"Point","coordinates":[45.7931795,9.747722]}},{"type":"Feature","properties":{"name":"France","ISO3166-1-Alpha-3":"-99","ISO3166-1-Alpha-2":"-99"},"geometry":{"type":"Point","coordinates":[1.7077020000000003,46.706601]}},{"type":"Feature","properties":{"name":"Suriname","ISO3166-1-Alpha-3":"SUR","ISO3166-1-Alpha-2":"SR"},"geometry":{"type":"Point","coordinates":[-56.027024,3.9225405]}},{"type":"Feature","properties":{"name":"Guyana","ISO3166-1-Alpha-3":"GUY","ISO3166-1-Alpha-2":"GY"},"geometry":{"type":"Point","coordinates":[-58.939266,4.8719149999999996]}},{"type":"Feature","properties":{"name":"South Korea","ISO3166-1-Alpha-3":"KOR","ISO3166-1-Alpha-2":"KR"},"geometry":{"type":"Point","coordinates":[127.85771700000001,36.458278500000006]}},{"type":"Feature","properties":{"name":"North Korea","ISO3166-1-Alpha-3":"PRK","ISO3166-1-Alpha-2":"KP"},"geometry":{"type":"Point","coordinates":[127.510753,40.3429375]}},{"type":"Feature","properties":{"name":"Morocco","ISO3166-1-Alpha-3":"MAR","ISO3166-1-Alpha-2":"MA"},"geometry":{"type":"Point","coordinates":[-9.022871,28.673245]}},{"type":"Feature","properties":{"name":"Western Sahara","ISO3166-1-Alpha-3":"ESH","ISO3166-1-Alpha-2":"EH"},"geometry":{"type":"Point","coordinates":[-12.8927265,24.214188999999998]}},{"type":"Feature","properties":{"name":"Costa Rica","ISO3166-1-Alpha-3":"CRI","ISO3166-1-Alpha-2":"CR"},"geometry":{"type":"Point","coordinates":[-84.254639,9.6223425]}},{"type":"Feature","properties":{"name":"Nicaragua","ISO3166-1-Alpha-3":"NIC","ISO3166-1-Alpha-2":"NI"},"geometry":{"type":"Point","coordinates":[-85.4081325,12.872226000000001]}},{"type":"Feature","properties":{"name":"Republic of the Congo","ISO3166-1-Alpha-3":"COG","ISO3166-1-Alpha-2":"CG"},"geometry":{"type":"Point","coordinates":[14.878211499999999,-0.6556775000000001]}},{"type":"Feature","properties":{"name":"Democratic Republic of the Congo","ISO3166-1-Alpha-3":"COD","ISO3166-1-Alpha-2":"CD"},"geometry":{"type":"Point","coordinates":[21.745494,-4.0415355]}},{"type":"Feature","properties":{"name":"Bhutan","ISO3166-1-Alpha-3":"BTN","ISO3166-1-Alpha-2":"BT"},"geometry":{"type":"Point","coordinates":[90.40942150000001,27.527274]}},{"type":"Feature","properties":{"name":"Ukraine","ISO3166-1-Alpha-3":"UKR","ISO3166-1-Alpha-2":"UA"},"geometry":{"type":"Point","coordinates":[31.1461915,48.7912585]}},{"type":"Feature","properties":{"name":"Belarus","ISO3166-1-Alpha-3":"BLR","ISO3166-1-Alpha-2":"BY"},"geometry":{"type":"Point","coordinates":[27.9425885,53.695987]}},{"type":"Feature","properties":{"name":"Namibia","ISO3166-1-Alpha-3":"NAM","ISO3166-1-Alpha-2":"NA"},"geometry":{"type":"Point","coordinates":[18.488701,-22.955212500000002]}},{"type":"Feature","properties":{"name":"South Africa","ISO3166-1-Alpha-3":"ZAF","ISO3166-1-Alpha-2":"ZA"},"geometry":{"type":"Point","coordinates":[24.681528999999998,-28.474203]}},{"type":"Feature","properties":{"name":"Saint Martin","ISO3166-1-Alpha-3":"MAF","ISO3166-1-Alpha-2":"MF"},"geometry":{"type":"Point","coordinates":[-63.078785999999994,18.0777645]}},{"type":"Feature","properties":{"name":"Sint Maarten","ISO3166-1-Alpha-3":"SXM","ISO3166-1-Alpha-2":"SX"},"geometry":{"type":"Point","coordinates":[-63.068227500000006,18.040615000000003]}},{"type":"Feature","properties":{"name":"Oman","ISO3166-1-Alpha-3":"OMN","ISO3166-1-Alpha-2":"OM"},"geometry":{"type":"Point","coordinates":[55.9115945,20.810309]}},{"type":"Feature","properties":{"name":"Uzbekistan","ISO3166-1-Alpha-3":"UZB","ISO3166-1-Alpha-2":"UZ"},"geometry":{"type":"Point","coordinates":[64.56224,41.371933]}},{"type":"Feature","properties":{"name":"Kazakhstan","ISO3166-1-Alpha-3":"KAZ","ISO3166-1-Alpha-2":"KZ"},"geometry":{"type":"Point","coordinates":[66.9010375,48.009603]}},{"type":"Feature","properties":{"name":"Tajikistan","ISO3166-1-Alpha-3":"TJK","ISO3166-1-Alpha-2":"TJ"},"geometry":{"type":"Point","coordinates":[71.25340750000001,38.859308999999996]}},{"type":"Feature","properties":{"name":"Lithuania","ISO3166-1-Alpha-3":"LTU","ISO3166-1-Alpha-2":"LT"},"geometry":{"type":"Point","coordinates":[23.922704,55.1647215]}},{"type":"Feature","properties":{"name":"Brazil","ISO3166-1-Alpha-3":"BRA","ISO3166-1-Alpha-2":"BR"},"geometry":{"type":"Point","coordinates":[-54.406042,-14.2375275]}},{"type":"Feature","properties":{"name":"Uruguay","ISO3166-1-Alpha-3":"URY","ISO3166-1-Alpha-2":"UY"},"geometry":{"type":"Point","coordinates":[-55.7750985,-32.5351365]}},{"type":"Feature","properties":{"name":"Mongolia","ISO3166-1-Alpha-3":"MNG","ISO3166-1-Alpha-2":"MN"},"geometry":{"type":"Point","coordinates":[103.821368,46.857864500000005]}},{"type":"Feature","properties":{"name":"Russia","ISO3166-1-Alpha-3":"RUS","ISO3166-1-Alpha-2":"RU"},"geometry":{"type":"Point","coordinates":[103.6640135,59.465108]}},{"type":"Feature","properties":{"name":"Czechia","ISO3166-1-Alpha-3":"CZE","ISO3166-1-Alpha-2":"CZ"},"geometry":{"type":"Point","coordinates":[15.456787499999999,49.798964]}},{"type":"Feature","properties":{"name":"Germany","ISO3166-1-Alpha-3":"DEU","ISO3166-1-Alpha-2":"DE"},"geometry":{"type":"Point","coordinates":[10.437274500000001,51.0885105]}},{"type":"Feature","properties":{"name":"Estonia","ISO3166-1-Alpha-3":"EST","ISO3166-1-Alpha-2":"EE"},"geometry":{"type":"Point","coordinates":[25.797425500000003,58.593351999999996]}},{"type":"Feature","properties":{"name":"Latvia","ISO3166-1-Alpha-3":"LVA","ISO3166-1-Alpha-2":"LV"},"geometry":{"type":"Point","coordinates":[24.5929365,56.8710645]}},{"type":"Feature","properties":{"name":"Norway","ISO3166-1-Alpha-3":"-99","ISO3166-1-Alpha-2":"-99"},"geometry":{"type":"Point","coordinates":[18.001882000000002,64.560126]}},{"type":"Feature","properties":{"name":"Sweden","ISO3166-1-Alpha-3":"SWE","ISO3166-1-Alpha-2":"SE"},"geometry":{"type":"Point","coordinates":[17.6357895,62.189516999999995]}},{"type":"Feature","properties":{"name":"Finland","ISO3166-1-Alpha-3":"FIN","ISO3166-1-Alpha-2":"FI"},"geometry":{"type":"Point","coordinates":[26.096345,64.9432675]}},{"type":"Feature","properties":{"name":"Vietnam","ISO3166-1-Alpha-3":"VNM","ISO3166-1-Alpha-2":"VN"},"geometry":{"type":"Point","coordinates":[105.795539,15.965927]}},{"type":"Feature","properties":{"name":"Cambodia","ISO3166-1-Alpha-3":"KHM","ISO3166-1-Alpha-2":"KH"},"geometry":{"type":"Point","coordinates":[104.96197000000001,12.560178]}},{"type":"Feature","properties":{"name":"Luxembourg","ISO3166-1-Alpha-3":"LUX","ISO3166-1-Alpha-2":"LU"},"geometry":{"type":"Point","coordinates":[6.108753,49.8081495]}},{"type":"Feature","properties":{"name":"United Arab Emirates","ISO3166-1-Alpha-3":"ARE","ISO3166-1-Alpha-2":"AE"},"geometry":{"type":"Point","coordinates":[53.976492,24.347869]}},{"type":"Feature","properties":{"name":"Belgium","ISO3166-1-Alpha-3":"BEL","ISO3166-1-Alpha-2":"BE"},"geometry":{"type":"Point","coordinates":[4.4481625000000005,50.4957305]}},{"type":"Feature","properties":{"name":"Georgia","ISO3166-1-Alpha-3":"GEO","ISO3166-1-Alpha-2":"GE"},"geometry":{"type":"Point","coordinates":[43.3403895,42.309977]}},{"type":"Feature","properties":{"name":"North Macedonia","ISO3166-1-Alpha-3":"MKD","ISO3166-1-Alpha-2":"MK"},"geometry":{"type":"Point","coordinates":[21.7268695,41.6098645]}},{"type":"Feature","properties":{"name":"Albania","ISO3166-1-Alpha-3":"ALB","ISO3166-1-Alpha-2":"AL"},"geometry":{"type":"Point","coordinates":[20.154356,41.145913500000006]}},{"type":"Feature","properties":{"name":"Azerbaijan","ISO3166-1-Alpha-3":"AZE","ISO3166-1-Alpha-2":"AZ"},"geometry":{"type":"Point","coordinates":[47.696762,40.1415435]}},{"type":"Feature","properties":{"name":"Kosovo","ISO3166-1-Alpha-3":"-99","ISO3166-1-Alpha-2":"-99"},"geometry":{"type":"Point","coordinates":[20.8987545,42.5535405]}},{"type":"Feature","properties":{"name":"Turkey","ISO3166-1-Alpha-3":"TUR","ISO3166-1-Alpha-2":"TR"},"geometry":{"type":"Point","coordinates":[35.4384955,38.9592805]}},{"type":"Feature","properties":{"name":"Spain","ISO3166-1-Alpha-3":"ESP","ISO3166-1-Alpha-2":"ES"},"geometry":{"type":"Point","coordinates":[-2.9871315000000003,39.899949500000005]}},{"type":"Feature","properties":{"name":"Laos","ISO3166-1-Alpha-3":"LAO","ISO3166-1-Alpha-2":"LA"},"geometry":{"type":"Point","coordinates":[103.880718,18.2057505]}},{"type":"Feature","properties":{"name":"Kyrgyzstan","ISO3166-1-Alpha-3":"KGZ","ISO3166-1-Alpha-2":"KG"},"geometry":{"type":"Point","coordinates":[74.7419285,41.2254695]}},{"type":"Feature","properties":{"name":"Armenia","ISO3166-1-Alpha-3":"ARM","ISO3166-1-Alpha-2":"AM"},"geometry":{"type":"Point","coordinates":[45.019453,40.077076500000004]}},{"type":"Feature","properties":{"name":"Denmark","ISO3166-1-Alpha-3":"DNK","ISO3166-1-Alpha-2":"DK"},"geometry":{"type":"Point","coordinates":[9.5290635,56.2763915]}},{"type":"Feature","properties":{"name":"Libya","ISO3166-1-Alpha-3":"LBY","ISO3166-1-Alpha-2":"LY"},"geometry":{"type":"Point","coordinates":[17.2214025,26.338674499999996]}},{"type":"Feature","properties":{"name":"Tunisia","ISO3166-1-Alpha-3":"TUN","ISO3166-1-Alpha-2":"TN"},"geometry":{"type":"Point","coordinates":[9.521981499999999,33.787053]}},{"type":"Feature","properties":{"name":"Romania","ISO3166-1-Alpha-3":"ROU","ISO3166-1-Alpha-2":"RO"},"geometry":{"type":"Point","coordinates":[24.9711905,45.962441]}},{"type":"Feature","properties":{"name":"Hungary","ISO3166-1-Alpha-3":"HUN","ISO3166-1-Alpha-2":"HU"},"geometry":{"type":"Point","coordinates":[19.485818000000002,47.155288]}},{"type":"Feature","properties":{"name":"Slovakia","ISO3166-1-Alpha-3":"SVK","ISO3166-1-Alpha-2":"SK"},"geometry":{"type":"Point","coordinates":[19.6920585,48.675893]}},{"type":"Feature","properties":{"name":"Poland","ISO3166-1-Alpha-3":"POL","ISO3166-1-Alpha-2":"PL"},"geometry":{"type":"Point","coordinates":[19.1335395,51.9161685]}},{"type":"Feature","properties":{"name":"Ireland","ISO3166-1-Alpha-3":"IRL","ISO3166-1-Alpha-2":"IE"},"geometry":{"type":"Point","coordinates":[-8.2358495,53.416042]}},{"type":"Feature","properties":{"name":"United Kingdom","ISO3166-1-Alpha-3":"GBR","ISO3166-1-Alpha-2":"GB"},"geometry":{"type":"Point","coordinates":[-2.232615,54.318101]}},{"type":"Feature","properties":{"name":"Greece","ISO3166-1-Alpha-3":"GRC","ISO3166-1-Alpha-2":"GR"},"geometry":{"type":"Point","coordinates":[23.318222,39.0707065]}},{"type":"Feature","properties":{"name":"Zambia","ISO3166-1-Alpha-3":"ZMB","ISO3166-1-Alpha-2":"ZM"},"geometry":{"type":"Point","coordinates":[27.8270405,-13.131678]}},{"type":"Feature","properties":{"name":"Sierra Leone","ISO3166-1-Alpha-3":"SLE","ISO3166-1-Alpha-2":"SL"},"geometry":{"type":"Point","coordinates":[-11.791666,8.457713]}},{"type":"Feature","properties":{"name":"Guinea","ISO3166-1-Alpha-3":"GIN","ISO3166-1-Alpha-2":"GN"},"geometry":{"type":"Point","coordinates":[-11.371786,9.931798]}},{"type":"Feature","properties":{"name":"Liberia","ISO3166-1-Alpha-3":"LBR","ISO3166-1-Alpha-2":"LR"},"geometry":{"type":"Point","coordinates":[-9.430152,6.4563155000000005]}},{"type":"Feature","properties":{"name":"Central African Republic","ISO3166-1-Alpha-3":"CAF","ISO3166-1-Alpha-2":"CF"},"geometry":{"type":"Point","coordinates":[20.9142835,6.618641]}},{"type":"Feature","properties":{"name":"Sudan","ISO3166-1-Alpha-3":"SDN","ISO3166-1-Alpha-2":"SD"},"geometry":{"type":"Point","coordinates":[30.206650500000002,15.4543035]}},{"type":"Feature","properties":{"name":"Djibouti","ISO3166-1-Alpha-3":"DJI","ISO3166-1-Alpha-2":"DJ"},"geometry":{"type":"Point","coordinates":[42.583911,11.818869]}},{"type":"Feature","properties":{"name":"Eritrea","ISO3166-1-Alpha-3":"ERI","ISO3166-1-Alpha-2":"ER"},"geometry":{"type":"Point","coordinates":[39.773759,15.182425]}},{"type":"Feature","properties":{"name":"Austria","ISO3166-1-Alpha-3":"AUT","ISO3166-1-Alpha-2":"AT"},"geometry":{"type":"Point","coordinates":[13.3347465,47.6942085]}},{"type":"Feature","properties":{"name":"Iraq","ISO3166-1-Alpha-3":"IRQ","ISO3166-1-Alpha-2":"IQ"},"geometry":{"type":"Point","coordinates":[43.666883,33.2193175]}},{"type":"Feature","properties":{"name":"Italy","ISO3166-1-Alpha-3":"ITA","ISO3166-1-Alpha-2":"IT"},"geometry":{"type":"Point","coordinates":[12.560077,42.502114]}},{"type":"Feature","properties":{"name":"Switzerland","ISO3166-1-Alpha-3":"CHE","ISO3166-1-Alpha-2":"CH"},"geometry":{"type":"Point","coordinates":[8.210718,46.810942]}},{"type":"Feature","properties":{"name":"Iran","ISO3166-1-Alpha-3":"IRN","ISO3166-1-Alpha-2":"IR"},"geometry":{"type":"Point","coordinates":[53.6672455,32.4154675]}},{"type":"Feature","properties":{"name":"Netherlands","ISO3166-1-Alpha-3":"NLD","ISO3166-1-Alpha-2":"NL"},"geometry":{"type":"Point","coordinates":[5.322769,52.1040945]}},{"type":"Feature","properties":{"name":"Liechtenstein","ISO3166-1-Alpha-3":"LIE","ISO3166-1-Alpha-2":"LI"},"geometry":{"type":"Point","coordinates":[9.5458045,47.1576005]}},{"type":"Feature","properties":{"name":"Ivory Coast","ISO3166-1-Alpha-3":"CIV","ISO3166-1-Alpha-2":"CI"},"geometry":{"type":"Point","coordinates":[-5.562524,7.535270000000001]}},{"type":"Feature","properties":{"name":"Republic of Serbia","ISO3166-1-Alpha-3":"SRB","ISO3166-1-Alpha-2":"RS"},"geometry":{"type":"Point","coordinates":[20.9147745,44.20441]}},{"type":"Feature","properties":{"name":"Mali","ISO3166-1-Alpha-3":"MLI","ISO3166-1-Alpha-2":"ML"},"geometry":{"type":"Point","coordinates":[-4.014246,17.5675595]}},{"type":"Feature","properties":{"name":"Senegal","ISO3166-1-Alpha-3":"SEN","ISO3166-1-Alpha-2":"SN"},"geometry":{"type":"Point","coordinates":[-14.4569085,14.498496]}},{"type":"Feature","properties":{"name":"Nigeria","ISO3166-1-Alpha-3":"NGA","ISO3166-1-Alpha-2":"NG"},"geometry":{"type":"Point","coordinates":[8.670509,9.0762265]}},{"type":"Feature","properties":{"name":"Benin","ISO3166-1-Alpha-3":"BEN","ISO3166-1-Alpha-2":"BJ"},"geometry":{"type":"Point","coordinates":[2.2986500000000003,9.306569]}},{"type":"Feature","properties":{"name":"Angola","ISO3166-1-Alpha-3":"AGO","ISO3166-1-Alpha-2":"AO"},"geometry":{"type":"Point","coordinates":[17.8986195,-11.936505499999999]}},{"type":"Feature","properties":{"name":"Croatia","ISO3166-1-Alpha-3":"HRV","ISO3166-1-Alpha-2":"HR"},"geometry":{"type":"Point","coordinates":[16.4546565,44.7445315]}},{"type":"Feature","properties":{"name":"Slovenia","ISO3166-1-Alpha-3":"SVN","ISO3166-1-Alpha-2":"SI"},"geometry":{"type":"Point","coordinates":[14.9402815,46.1437995]}},{"type":"Feature","properties":{"name":"Qatar","ISO3166-1-Alpha-3":"QAT","ISO3166-1-Alpha-2":"QA"},"geometry":{"type":"Point","coordinates":[51.183767,25.359986999999997]}},{"type":"Feature","properties":{"name":"Saudi Arabia","ISO3166-1-Alpha-3":"SAU","ISO3166-1-Alpha-2":"SA"},"geometry":{"type":"Point","coordinates":[45.105165,24.246153]}},{"type":"Feature","properties":{"name":"Botswana","ISO3166-1-Alpha-3":"BWA","ISO3166-1-Alpha-2":"BW"},"geometry":{"type":"Point","coordinates":[24.664209999999997,-22.336801]}},{"type":"Feature","properties":{"name":"Zimbabwe","ISO3166-1-Alpha-3":"ZWE","ISO3166-1-Alpha-2":"ZW"},"geometry":{"type":"Point","coordinates":[29.131069000000004,-19.006073999999998]}},{"type":"Feature","properties":{"name":"Pakistan","ISO3166-1-Alpha-3":"PAK","ISO3166-1-Alpha-2":"PK"},"geometry":{"type":"Point","coordinates":[68.946675,30.3745045]}},{"type":"Feature","properties":{"name":"Bulgaria","ISO3166-1-Alpha-3":"BGR","ISO3166-1-Alpha-2":"BG"},"geometry":{"type":"Point","coordinates":[25.4742745,42.7332695]}},{"type":"Feature","properties":{"name":"Thailand","ISO3166-1-Alpha-3":"THA","ISO3166-1-Alpha-2":"TH"},"geometry":{"type":"Point","coordinates":[101.5011995,13.037448]}},{"type":"Feature","properties":{"name":"San Marino","ISO3166-1-Alpha-3":"SMR","ISO3166-1-Alpha-2":"SM"},"geometry":{"type":"Point","coordinates":[12.4390105,43.9373115]}},{"type":"Feature","properties":{"name":"Haiti","ISO3166-1-Alpha-3":"HTI","ISO3166-1-Alpha-2":"HT"},"geometry":{"type":"Point","coordinates":[-73.0641385,18.985785]}},{"type":"Feature","properties":{"name":"Dominican Republic","ISO3166-1-Alpha-3":"DOM","ISO3166-1-Alpha-2":"DO"},"geometry":{"type":"Point","coordinates":[-70.1692205,18.771247000000002]}},{"type":"Feature","properties":{"name":"Chad","ISO3166-1-Alpha-3":"TCD","ISO3166-1-Alpha-2":"TD"},"geometry":{"type":"Point","coordinates":[18.716795,15.4501435]}},{"type":"Feature","properties":{"name":"Kuwait","ISO3166-1-Alpha-3":"KWT","ISO3166-1-Alpha-2":"KW"},"geometry":{"type":"Point","coordinates":[47.4826085,29.3158605]}},{"type":"Feature","properties":{"name":"El Salvador","ISO3166-1-Alpha-3":"SLV","ISO3166-1-Alpha-2":"SV"},"geometry":{"type":"Point","coordinates":[-88.9091935,13.802005000000001]}},{"type":"Feature","properties":{"name":"Guatemala","ISO3166-1-Alpha-3":"GTM","ISO3166-1-Alpha-2":"GT"},"geometry":{"type":"Point","coordinates":[-90.233597,15.773712]}},{"type":"Feature","properties":{"name":"East Timor","ISO3166-1-Alpha-3":"TLS","ISO3166-1-Alpha-2":"TL"},"geometry":{"type":"Point","coordinates":[126.11057650000001,-8.8973935]}},{"type":"Feature","properties":{"name":"Brunei","ISO3166-1-Alpha-3":"BRN","ISO3166-1-Alpha-2":"BN"},"geometry":{"type":"Point","coordinates":[114.5509955,4.5369385]}},{"type":"Feature","properties":{"name":"Monaco","ISO3166-1-Alpha-3":"MCO","ISO3166-1-Alpha-2":"MC"},"geometry":{"type":"Point","coordinates":[7.4016020000000005,43.740737499999994]}},{"type":"Feature","properties":{"name":"Algeria","ISO3166-1-Alpha-3":"DZA","ISO3166-1-Alpha-2":"DZ"},"geometry":{"type":"Point","coordinates":[1.6432380000000002,28.0347505]}},{"type":"Feature","properties":{"name":"Mozambique","ISO3166-1-Alpha-3":"MOZ","ISO3166-1-Alpha-2":"MZ"},"geometry":{"type":"Point","coordinates":[35.5309185,-18.66464]}},{"type":"Feature","properties":{"name":"eSwatini","ISO3166-1-Alpha-3":"SWZ","ISO3166-1-Alpha-2":"SZ"},"geometry":{"type":"Point","coordinates":[31.450152000000003,-26.526131499999998]}},{"type":"Feature","properties":{"name":"Burundi","ISO3166-1-Alpha-3":"BDI","ISO3166-1-Alpha-2":"BI"},"geometry":{"type":"Point","coordinates":[29.910427,-3.383203]}},{"type":"Feature","properties":{"name":"Rwanda","ISO3166-1-Alpha-3":"RWA","ISO3166-1-Alpha-2":"RW"},"geometry":{"type":"Point","coordinates":[29.872522500000002,-1.9427745]}},{"type":"Feature","properties":{"name":"Myanmar","ISO3166-1-Alpha-3":"MMR","ISO3166-1-Alpha-2":"MM"},"geometry":{"type":"Point","coordinates":[96.674414,19.26296]}},{"type":"Feature","properties":{"name":"Bangladesh","ISO3166-1-Alpha-3":"BGD","ISO3166-1-Alpha-2":"BD"},"geometry":{"type":"Point","coordinates":[90.3323205,23.681129499999997]}},{"type":"Feature","properties":{"name":"Andorra","ISO3166-1-Alpha-3":"AND","ISO3166-1-Alpha-2":"AD"},"geometry":{"type":"Point","coordinates":[1.5857735,42.5390195]}},{"type":"Feature","properties":{"name":"Afghanistan","ISO3166-1-Alpha-3":"AFG","ISO3166-1-Alpha-2":"AF"},"geometry":{"type":"Point","coordinates":[67.6895425,33.930139]}},{"type":"Feature","properties":{"name":"Montenegro","ISO3166-1-Alpha-3":"MNE","ISO3166-1-Alpha-2":"ME"},"geometry":{"type":"Point","coordinates":[19.394351,42.700124]}},{"type":"Feature","properties":{"name":"Bosnia and Herzegovina","ISO3166-1-Alpha-3":"BIH","ISO3166-1-Alpha-2":"BA"},"geometry":{"type":"Point","coordinates":[17.6674795,43.921868]}},{"type":"Feature","properties":{"name":"Uganda","ISO3166-1-Alpha-3":"UGA","ISO3166-1-Alpha-2":"UG"},"geometry":{"type":"Point","coordinates":[32.2774665,1.372243]}},{"type":"Feature","properties":{"name":"US Naval Base Guantanamo Bay","ISO3166-1-Alpha-3":"-99","ISO3166-1-Alpha-2":"-99"},"geometry":{"type":"Point","coordinates":[-75.130123,19.931362999999997]}},{"type":"Feature","properties":{"name":"Cuba","ISO3166-1-Alpha-3":"CUB","ISO3166-1-Alpha-2":"CU"},"geometry":{"type":"Point","coordinates":[-79.541249,21.520107000000003]}},{"type":"Feature","properties":{"name":"Honduras","ISO3166-1-Alpha-3":"HND","ISO3166-1-Alpha-2":"HN"},"geometry":{"type":"Point","coordinates":[-86.2471175,14.506463]}},{"type":"Feature","properties":{"name":"Ecuador","ISO3166-1-Alpha-3":"ECU","ISO3166-1-Alpha-2":"EC"},"geometry":{"type":"Point","coordinates":[-78.120137,-1.7885304999999998]}},{"type":"Feature","properties":{"name":"Colombia","ISO3166-1-Alpha-3":"COL","ISO3166-1-Alpha-2":"CO"},"geometry":{"type":"Point","coordinates":[-72.9482865,4.1159225]}},{"type":"Feature","properties":{"name":"Paraguay","ISO3166-1-Alpha-3":"PRY","ISO3166-1-Alpha-2":"PY"},"geometry":{"type":"Point","coordinates":[-58.447823,-23.4367855]}},{"type":"Feature","properties":{"name":"Brazilian Island","ISO3166-1-Alpha-3":"-99","ISO3166-1-Alpha-2":"-99"},"geometry":{"type":"Point","coordinates":[-57.6226295,-30.1880275]}},{"type":"Feature","properties":{"name":"Portugal","ISO3166-1-Alpha-3":"PRT","ISO3166-1-Alpha-2":"PT"},"geometry":{"type":"Point","coordinates":[-7.851707,39.570195999999996]}},{"type":"Feature","properties":{"name":"Moldova","ISO3166-1-Alpha-3":"MDA","ISO3166-1-Alpha-2":"MD"},"geometry":{"type":"Point","coordinates":[28.3747325,46.973904]}},{"type":"Feature","properties":{"name":"Turkmenistan","ISO3166-1-Alpha-3":"TKM","ISO3166-1-Alpha-2":"TM"},"geometry":{"type":"Point","coordinates":[59.541726499999996,38.9659175]}},{"type":"Feature","properties":{"name":"Jordan","ISO3166-1-Alpha-3":"JOR","ISO3166-1-Alpha-2":"JO"},"geometry":{"type":"Point","coordinates":[37.120692,31.280818]}},{"type":"Feature","properties":{"name":"Nepal","ISO3166-1-Alpha-3":"NPL","ISO3166-1-Alpha-2":"NP"},"geometry":{"type":"Point","coordinates":[84.0996775,28.380336]}},{"type":"Feature","properties":{"name":"Lesotho","ISO3166-1-Alpha-3":"LSO","ISO3166-1-Alpha-2":"LS"},"geometry":{"type":"Point","coordinates":[28.2190315,-29.61478]}},{"type":"Feature","properties":{"name":"Cameroon","ISO3166-1-Alpha-3":"CMR","ISO3166-1-Alpha-2":"CM"},"geometry":{"type":"Point","coordinates":[12.3563895,7.367846]}},{"type":"Feature","properties":{"name":"Gabon","ISO3166-1-Alpha-3":"GAB","ISO3166-1-Alpha-2":"GA"},"geometry":{"type":"Point","coordinates":[11.597279,-0.8071805000000001]}},{"type":"Feature","properties":{"name":"Niger","ISO3166-1-Alpha-3":"NER","ISO3166-1-Alpha-2":"NE"},"geometry":{"type":"Point","coordinates":[8.061631499999999,17.606562]}},{"type":"Feature","properties":{"name":"Burkina Faso","ISO3166-1-Alpha-3":"BFA","ISO3166-1-Alpha-2":"BF"},"geometry":{"type":"Point","coordinates":[-1.5662045,12.2358955]}},{"type":"Feature","properties":{"name":"Togo","ISO3166-1-Alpha-3":"TGO","ISO3166-1-Alpha-2":"TG"},"geometry":{"type":"Point","coordinates":[0.808121,8.6177355]}},{"type":"Feature","properties":{"name":"Ghana","ISO3166-1-Alpha-3":"GHA","ISO3166-1-Alpha-2":"GH"},"geometry":{"type":"Point","coordinates":[-1.0372705,7.9500325]}},{"type":"Feature","properties":{"name":"Guinea-Bissau","ISO3166-1-Alpha-3":"GNB","ISO3166-1-Alpha-2":"GW"},"geometry":{"type":"Point","coordinates":[-15.1945745,11.8035365]}},{"type":"Feature","properties":{"name":"Gibraltar","ISO3166-1-Alpha-3":"GIB","ISO3166-1-Alpha-2":"GI"},"geometry":{"type":"Point","coordinates":[-5.34858,36.12581]}},{"type":"Feature","properties":{"name":"United States of America","ISO3166-1-Alpha-3":"USA","ISO3166-1-Alpha-2":"US"},"geometry":{"type":"Point","coordinates":[-95.855966,37.2454495]}},{"type":"Feature","properties":{"name":"Canada","ISO3166-1-Alpha-3":"CAN","ISO3166-1-Alpha-2":"CA"},"geometry":{"type":"Point","coordinates":[-98.311045,56.835614500000005]}},{"type":"Feature","properties":{"name":"Mexico","ISO3166-1-Alpha-3":"MEX","ISO3166-1-Alpha-2":"MX"},"geometry":{"type":"Point","coordinates":[-101.933344,23.6295575]}},{"type":"Feature","properties":{"name":"Belize","ISO3166-1-Alpha-3":"BLZ","ISO3166-1-Alpha-2":"BZ"},"geometry":{"type":"Point","coordinates":[-88.66003950000001,17.185205500000002]}},{"type":"Feature","properties":{"name":"Panama","ISO3166-1-Alpha-3":"PAN","ISO3166-1-Alpha-2":"PA"},"geometry":{"type":"Point","coordinates":[-80.108258,8.417503499999999]}},{"type":"Feature","properties":{"name":"Venezuela","ISO3166-1-Alpha-3":"VEN","ISO3166-1-Alpha-2":"VE"},"geometry":{"type":"Point","coordinates":[-66.60337200000001,6.4241174999999995]}},{"type":"Feature","properties":{"name":"Papua New Guinea","ISO3166-1-Alpha-3":"PNG","ISO3166-1-Alpha-2":"PG"},"geometry":{"type":"Point","coordinates":[145.8616225,-6.6455625000000005]}},{"type":"Feature","properties":{"name":"Egypt","ISO3166-1-Alpha-3":"EGY","ISO3166-1-Alpha-2":"EG"},"geometry":{"type":"Point","coordinates":[30.793762,26.825424499999997]}},{"type":"Feature","properties":{"name":"Yemen","ISO3166-1-Alpha-3":"YEM","ISO3166-1-Alpha-2":"YE"},"geometry":{"type":"Point","coordinates":[47.850230499999995,15.7968435]}},{"type":"Feature","properties":{"name":"Mauritania","ISO3166-1-Alpha-3":"MRT","ISO3166-1-Alpha-2":"MR"},"geometry":{"type":"Point","coordinates":[-10.951394,21.0099075]}},{"type":"Feature","properties":{"name":"Equatorial Guinea","ISO3166-1-Alpha-3":"GNQ","ISO3166-1-Alpha-2":"GQ"},"geometry":{"type":"Point","coordinates":[10.3415155,1.633298]}},{"type":"Feature","properties":{"name":"Gambia","ISO3166-1-Alpha-3":"GMB","ISO3166-1-Alpha-2":"GM"},"geometry":{"type":"Point","coordinates":[-15.324207000000001,13.4424965]}},{"type":"Feature","properties":{"name":"Hong Kong S.A.R.","ISO3166-1-Alpha-3":"HKG","ISO3166-1-Alpha-2":"HK"},"geometry":{"type":"Point","coordinates":[114.1491395,22.4111165]}},{"type":"Feature","properties":{"name":"Vatican","ISO3166-1-Alpha-3":"VAT","ISO3166-1-Alpha-2":"VA"},"geometry":{"type":"Point","coordinates":[12.453374499999999,41.9033335]}},{"type":"Feature","properties":{"name":"Northern Cyprus","ISO3166-1-Alpha-3":"-99","ISO3166-1-Alpha-2":"-99"},"geometry":{"type":"Point","coordinates":[33.651566,35.347342]}},{"type":"Feature","properties":{"name":"Cyprus No Mans Area","ISO3166-1-Alpha-3":"-99","ISO3166-1-Alpha-2":"-99"},"geometry":{"type":"Point","coordinates":[33.203494500000005,35.088583]}},{"type":"Feature","properties":{"name":"Siachen Glacier","ISO3166-1-Alpha-3":"-99","ISO3166-1-Alpha-2":"-99"},"geometry":{"type":"Point","coordinates":[77.2888485,35.3791205]}},{"type":"Feature","properties":{"name":"Baykonur Cosmodrome","ISO3166-1-Alpha-3":"-99","ISO3166-1-Alpha-2":"-99"},"geometry":{"type":"Point","coordinates":[63.383888,45.978331499999996]}},{"type":"Feature","properties":{"name":"Akrotiri Sovereign Base Area","ISO3166-1-Alpha-3":"-99","ISO3166-1-Alpha-2":"-99"},"geometry":{"type":"Point","coordinates":[32.895193000000006,34.6347485]}},{"type":"Feature","properties":{"name":"Southern Patagonian Ice Field","ISO3166-1-Alpha-3":"-99","ISO3166-1-Alpha-2":"-99"},"geometry":{"type":"Point","coordinates":[-73.32273,-49.5163565]}},{"type":"Feature","properties":{"name":"Bir Tawil","ISO3166-1-Alpha-3":"-99","ISO3166-1-Alpha-2":"-99"},"geometry":{"type":"Point","coordinates":[33.6326575,21.8532055]}},{"type":"Feature","properties":{"name":"Antarctica","ISO3166-1-Alpha-3":"ATA","ISO3166-1-Alpha-2":"AQ"},"geometry":{"type":"Point","coordinates":[0,-76.607388]}},{"type":"Feature","properties":{"name":"Australia","ISO3166-1-Alpha-3":"AUS","ISO3166-1-Alpha-2":"AU"},"geometry":{"type":"Point","coordinates":[133.393803,-24.916314500000002]}},{"type":"Feature","properties":{"name":"Greenland","ISO3166-1-Alpha-3":"GRL","ISO3166-1-Alpha-2":"GL"},"geometry":{"type":"Point","coordinates":[-42.217029999999994,71.8110215]}},{"type":"Feature","properties":{"name":"Fiji","ISO3166-1-Alpha-3":"FJI","ISO3166-1-Alpha-2":"FJ"},"geometry":{"type":"Point","coordinates":[177.981537,-17.7868385]}},{"type":"Feature","properties":{"name":"New Zealand","ISO3166-1-Alpha-3":"NZL","ISO3166-1-Alpha-2":"NZ"},"geometry":{"type":"Point","coordinates":[170.3964545,-43.592014500000005]}},{"type":"Feature","properties":{"name":"New Caledonia","ISO3166-1-Alpha-3":"NCL","ISO3166-1-Alpha-2":"NC"},"geometry":{"type":"Point","coordinates":[165.5102235,-21.239353]}},{"type":"Feature","properties":{"name":"Madagascar","ISO3166-1-Alpha-3":"MDG","ISO3166-1-Alpha-2":"MG"},"geometry":{"type":"Point","coordinates":[46.863414000000006,-18.771091]}},{"type":"Feature","properties":{"name":"Philippines","ISO3166-1-Alpha-3":"PHL","ISO3166-1-Alpha-2":"PH"},"geometry":{"type":"Point","coordinates":[121.971975,15.590887500000001]}},{"type":"Feature","properties":{"name":"Sri Lanka","ISO3166-1-Alpha-3":"LKA","ISO3166-1-Alpha-2":"LK"},"geometry":{"type":"Point","coordinates":[80.793549,7.8766545]}},{"type":"Feature","properties":{"name":"Curaçao","ISO3166-1-Alpha-3":"CUW","ISO3166-1-Alpha-2":"CW"},"geometry":{"type":"Point","coordinates":[-68.9557385,12.216416500000001]}},{"type":"Feature","properties":{"name":"Aruba","ISO3166-1-Alpha-3":"ABW","ISO3166-1-Alpha-2":"AW"},"geometry":{"type":"Point","coordinates":[-69.969614,12.524909000000001]}},{"type":"Feature","properties":{"name":"The Bahamas","ISO3166-1-Alpha-3":"BHS","ISO3166-1-Alpha-2":"BS"},"geometry":{"type":"Point","coordinates":[-78.080861,24.739793]}},{"type":"Feature","properties":{"name":"Turks and Caicos Islands","ISO3166-1-Alpha-3":"TCA","ISO3166-1-Alpha-2":"TC"},"geometry":{"type":"Point","coordinates":[-71.7407935,21.800076]}},{"type":"Feature","properties":{"name":"Taiwan","ISO3166-1-Alpha-3":"TWN","ISO3166-1-Alpha-2":"CN-TW"},"geometry":{"type":"Point","coordinates":[121.02890049999999,23.5960145]}},{"type":"Feature","properties":{"name":"Japan","ISO3166-1-Alpha-3":"JPN","ISO3166-1-Alpha-2":"JP"},"geometry":{"type":"Point","coordinates":[136.465953,37.4900965]}},{"type":"Feature","properties":{"name":"Saint Pierre and Miquelon","ISO3166-1-Alpha-3":"SPM","ISO3166-1-Alpha-2":"PM"},"geometry":{"type":"Point","coordinates":[-56.316050000000004,46.961005]}},{"type":"Feature","properties":{"name":"Iceland","ISO3166-1-Alpha-3":"ISL","ISO3166-1-Alpha-2":"IS"},"geometry":{"type":"Point","coordinates":[-19.0214125,64.966661]}},{"type":"Feature","properties":{"name":"Pitcairn Islands","ISO3166-1-Alpha-3":"PCN","ISO3166-1-Alpha-2":"PN"},"geometry":{"type":"Point","coordinates":[-128.3202005,-24.368992]}},{"type":"Feature","properties":{"name":"French Polynesia","ISO3166-1-Alpha-3":"PYF","ISO3166-1-Alpha-2":"PF"},"geometry":{"type":"Point","coordinates":[-149.39564000000001,-17.681573]}},{"type":"Feature","properties":{"name":"French Southern and Antarctic Lands","ISO3166-1-Alpha-3":"ATF","ISO3166-1-Alpha-2":"TF"},"geometry":{"type":"Point","coordinates":[69.6586615,-49.188083500000005]}},{"type":"Feature","properties":{"name":"Seychelles","ISO3166-1-Alpha-3":"SYC","ISO3166-1-Alpha-2":"SC"},"geometry":{"type":"Point","coordinates":[55.451766500000005,-4.68214]}},{"type":"Feature","properties":{"name":"Kiribati","ISO3166-1-Alpha-3":"KIR","ISO3166-1-Alpha-2":"KI"},"geometry":{"type":"Point","coordinates":[-157.37789850000001,1.8718529999999998]}},{"type":"Feature","properties":{"name":"Marshall Islands","ISO3166-1-Alpha-3":"MHL","ISO3166-1-Alpha-2":"MH"},"geometry":{"type":"Point","coordinates":[171.21461,7.119208]}},{"type":"Feature","properties":{"name":"Trinidad and Tobago","ISO3166-1-Alpha-3":"TTO","ISO3166-1-Alpha-2":"TT"},"geometry":{"type":"Point","coordinates":[-61.417998499999996,10.443670999999998]}},{"type":"Feature","properties":{"name":"Grenada","ISO3166-1-Alpha-3":"GRD","ISO3166-1-Alpha-2":"GD"},"geometry":{"type":"Point","coordinates":[-61.696645000000004,12.121283]}},{"type":"Feature","properties":{"name":"Saint Vincent and the Grenadines","ISO3166-1-Alpha-3":"VCT","ISO3166-1-Alpha-2":"VC"},"geometry":{"type":"Point","coordinates":[-61.2016495,13.256639]}},{"type":"Feature","properties":{"name":"Barbados","ISO3166-1-Alpha-3":"BRB","ISO3166-1-Alpha-2":"BB"},"geometry":{"type":"Point","coordinates":[-59.5405575,13.197862]}},{"type":"Feature","properties":{"name":"Saint Lucia","ISO3166-1-Alpha-3":"LCA","ISO3166-1-Alpha-2":"LC"},"geometry":{"type":"Point","coordinates":[-60.980743000000004,13.913275500000001]}},{"type":"Feature","properties":{"name":"Dominica","ISO3166-1-Alpha-3":"DMA","ISO3166-1-Alpha-2":"DM"},"geometry":{"type":"Point","coordinates":[-61.3690895,15.417833000000002]}},{"type":"Feature","properties":{"name":"United States Minor Outlying Islands","ISO3166-1-Alpha-3":"UMI","ISO3166-1-Alpha-2":"UM"},"geometry":{"type":"Point","coordinates":[-162.080617,5.879808000000001]}},{"type":"Feature","properties":{"name":"Montserrat","ISO3166-1-Alpha-3":"MSR","ISO3166-1-Alpha-2":"MS"},"geometry":{"type":"Point","coordinates":[-62.185333,16.747341]}},{"type":"Feature","properties":{"name":"Antigua and Barbuda","ISO3166-1-Alpha-3":"ATG","ISO3166-1-Alpha-2":"AG"},"geometry":{"type":"Point","coordinates":[-61.780873,17.0790065]}},{"type":"Feature","properties":{"name":"Saint Kitts and Nevis","ISO3166-1-Alpha-3":"KNA","ISO3166-1-Alpha-2":"KN"},"geometry":{"type":"Point","coordinates":[-62.742909,17.316514499999997]}},{"type":"Feature","properties":{"name":"United States Virgin Islands","ISO3166-1-Alpha-3":"VIR","ISO3166-1-Alpha-2":"VI"},"geometry":{"type":"Point","coordinates":[-64.7272845,17.737697500000003]}},{"type":"Feature","properties":{"name":"Saint Barthelemy","ISO3166-1-Alpha-3":"BLM","ISO3166-1-Alpha-2":"BL"},"geometry":{"type":"Point","coordinates":[-62.829498,17.905565]}},{"type":"Feature","properties":{"name":"Puerto Rico","ISO3166-1-Alpha-3":"PRI","ISO3166-1-Alpha-2":"PR"},"geometry":{"type":"Point","coordinates":[-66.431303,18.222846]}},{"type":"Feature","properties":{"name":"Anguilla","ISO3166-1-Alpha-3":"AIA","ISO3166-1-Alpha-2":"AI"},"geometry":{"type":"Point","coordinates":[-63.070240999999996,18.2227645]}},{"type":"Feature","properties":{"name":"British Virgin Islands","ISO3166-1-Alpha-3":"VGB","ISO3166-1-Alpha-2":"VG"},"geometry":{"type":"Point","coordinates":[-64.6154865,18.4185875]}},{"type":"Feature","properties":{"name":"Jamaica","ISO3166-1-Alpha-3":"JAM","ISO3166-1-Alpha-2":"JM"},"geometry":{"type":"Point","coordinates":[-77.28132099999999,18.114142]}},{"type":"Feature","properties":{"name":"Cayman Islands","ISO3166-1-Alpha-3":"CYM","ISO3166-1-Alpha-2":"KY"},"geometry":{"type":"Point","coordinates":[-81.251564,19.3293125]}},{"type":"Feature","properties":{"name":"Bermuda","ISO3166-1-Alpha-3":"BMU","ISO3166-1-Alpha-2":"BM"},"geometry":{"type":"Point","coordinates":[-64.7668125,32.3183675]}},{"type":"Feature","properties":{"name":"Heard Island and McDonald Islands","ISO3166-1-Alpha-3":"HMD","ISO3166-1-Alpha-2":"HM"},"geometry":{"type":"Point","coordinates":[73.524099,-53.077081]}},{"type":"Feature","properties":{"name":"Saint Helena","ISO3166-1-Alpha-3":"SHN","ISO3166-1-Alpha-2":"SH"},"geometry":{"type":"Point","coordinates":[-5.71996,-15.958917]}},{"type":"Feature","properties":{"name":"Mauritius","ISO3166-1-Alpha-3":"MUS","ISO3166-1-Alpha-2":"MU"},"geometry":{"type":"Point","coordinates":[57.5496115,-20.2483865]}},{"type":"Feature","properties":{"name":"Comoros","ISO3166-1-Alpha-3":"COM","ISO3166-1-Alpha-2":"KM"},"geometry":{"type":"Point","coordinates":[43.3560085,-11.647068]}},{"type":"Feature","properties":{"name":"São Tomé and Principe","ISO3166-1-Alpha-3":"STP","ISO3166-1-Alpha-2":"ST"},"geometry":{"type":"Point","coordinates":[6.6112985,0.217454]}},{"type":"Feature","properties":{"name":"Cabo Verde","ISO3166-1-Alpha-3":"CPV","ISO3166-1-Alpha-2":"CV"},"geometry":{"type":"Point","coordinates":[-23.6178485,15.120185]}},{"type":"Feature","properties":{"name":"Malta","ISO3166-1-Alpha-3":"MLT","ISO3166-1-Alpha-2":"MT"},"geometry":{"type":"Point","coordinates":[14.4445905,35.897426499999995]}},{"type":"Feature","properties":{"name":"Jersey","ISO3166-1-Alpha-3":"JEY","ISO3166-1-Alpha-2":"JE"},"geometry":{"type":"Point","coordinates":[-2.125152,49.2191835]}},{"type":"Feature","properties":{"name":"Guernsey","ISO3166-1-Alpha-3":"GGY","ISO3166-1-Alpha-2":"GG"},"geometry":{"type":"Point","coordinates":[-2.5875745,49.4711165]}},{"type":"Feature","properties":{"name":"Isle of Man","ISO3166-1-Alpha-3":"IMN","ISO3166-1-Alpha-2":"IM"},"geometry":{"type":"Point","coordinates":[-4.551035499999999,54.2379825]}},{"type":"Feature","properties":{"name":"Aland","ISO3166-1-Alpha-3":"ALA","ISO3166-1-Alpha-2":"AX"},"geometry":{"type":"Point","coordinates":[19.962291,60.22663]}},{"type":"Feature","properties":{"name":"Faroe Islands","ISO3166-1-Alpha-3":"FRO","ISO3166-1-Alpha-2":"FO"},"geometry":{"type":"Point","coordinates":[-6.96758,62.12641]}},{"type":"Feature","properties":{"name":"Indian Ocean Territories","ISO3166-1-Alpha-3":"-99","ISO3166-1-Alpha-2":"-99"},"geometry":{"type":"Point","coordinates":[105.648245,-10.498427]}},{"type":"Feature","properties":{"name":"British Indian Ocean Territory","ISO3166-1-Alpha-3":"IOT","ISO3166-1-Alpha-2":"IO"},"geometry":{"type":"Point","coordinates":[72.4211535,-7.350274]}},{"type":"Feature","properties":{"name":"Singapore","ISO3166-1-Alpha-3":"SGP","ISO3166-1-Alpha-2":"SG"},"geometry":{"type":"Point","coordinates":[103.82191,1.356472]}},{"type":"Feature","properties":{"name":"Norfolk Island","ISO3166-1-Alpha-3":"NFK","ISO3166-1-Alpha-2":"NF"},"geometry":{"type":"Point","coordinates":[167.95423449999998,-29.038750999999998]}},{"type":"Feature","properties":{"name":"Cook Islands","ISO3166-1-Alpha-3":"COK","ISO3166-1-Alpha-2":"CK"},"geometry":{"type":"Point","coordinates":[-159.7911475,-21.220228499999997]}},{"type":"Feature","properties":{"name":"Tonga","ISO3166-1-Alpha-3":"TON","ISO3166-1-Alpha-2":"TO"},"geometry":{"type":"Point","coordinates":[-175.207855,-21.165297000000002]}},{"type":"Feature","properties":{"name":"Wallis and Futuna","ISO3166-1-Alpha-3":"WLF","ISO3166-1-Alpha-2":"WF"},"geometry":{"type":"Point","coordinates":[-176.162587,-13.2795955]}},{"type":"Feature","properties":{"name":"Samoa","ISO3166-1-Alpha-3":"WSM","ISO3166-1-Alpha-2":"WS"},"geometry":{"type":"Point","coordinates":[-172.47911549999998,-13.6340875]}},{"type":"Feature","properties":{"name":"Solomon Islands","ISO3166-1-Alpha-3":"SLB","ISO3166-1-Alpha-2":"SB"},"geometry":{"type":"Point","coordinates":[160.209239,-9.592421]}},{"type":"Feature","properties":{"name":"Tuvalu","ISO3166-1-Alpha-3":"TUV","ISO3166-1-Alpha-2":"TV"},"geometry":{"type":"Point","coordinates":[179.204397,-8.5013565]}},{"type":"Feature","properties":{"name":"Maldives","ISO3166-1-Alpha-3":"MDV","ISO3166-1-Alpha-2":"MV"},"geometry":{"type":"Point","coordinates":[73.492042,4.202563]}},{"type":"Feature","properties":{"name":"Nauru","ISO3166-1-Alpha-3":"NRU","ISO3166-1-Alpha-2":"NR"},"geometry":{"type":"Point","coordinates":[166.932628,-0.521132]}},{"type":"Feature","properties":{"name":"Federated States of Micronesia","ISO3166-1-Alpha-3":"FSM","ISO3166-1-Alpha-2":"FM"},"geometry":{"type":"Point","coordinates":[158.23222900000002,6.883611999999999]}},{"type":"Feature","properties":{"name":"South Georgia and the Islands","ISO3166-1-Alpha-3":"SGS","ISO3166-1-Alpha-2":"GS"},"geometry":{"type":"Point","coordinates":[-36.908335,-54.4299455]}},{"type":"Feature","properties":{"name":"Falkland Islands","ISO3166-1-Alpha-3":"FLK","ISO3166-1-Alpha-2":"FK"},"geometry":{"type":"Point","coordinates":[-58.727914999999996,-51.7950985]}},{"type":"Feature","properties":{"name":"Vanuatu","ISO3166-1-Alpha-3":"VUT","ISO3166-1-Alpha-2":"VU"},"geometry":{"type":"Point","coordinates":[166.884939,-15.141778]}},{"type":"Feature","properties":{"name":"Niue","ISO3166-1-Alpha-3":"NIU","ISO3166-1-Alpha-2":"NU"},"geometry":{"type":"Point","coordinates":[-169.8666685,-19.0533995]}},{"type":"Feature","properties":{"name":"American Samoa","ISO3166-1-Alpha-3":"ASM","ISO3166-1-Alpha-2":"AS"},"geometry":{"type":"Point","coordinates":[-170.699249,-14.313531000000001]}},{"type":"Feature","properties":{"name":"Palau","ISO3166-1-Alpha-3":"PLW","ISO3166-1-Alpha-2":"PW"},"geometry":{"type":"Point","coordinates":[134.573131,7.5448875]}},{"type":"Feature","properties":{"name":"Guam","ISO3166-1-Alpha-3":"GUM","ISO3166-1-Alpha-2":"GU"},"geometry":{"type":"Point","coordinates":[144.78817800000002,13.447577]}},{"type":"Feature","properties":{"name":"Northern Mariana Islands","ISO3166-1-Alpha-3":"MNP","ISO3166-1-Alpha-2":"MP"},"geometry":{"type":"Point","coordinates":[145.75294050000002,15.1840885]}},{"type":"Feature","properties":{"name":"Bahrain","ISO3166-1-Alpha-3":"BHR","ISO3166-1-Alpha-2":"BH"},"geometry":{"type":"Point","coordinates":[50.547281999999996,26.0160585]}},{"type":"Feature","properties":{"name":"Coral Sea Islands","ISO3166-1-Alpha-3":"-99","ISO3166-1-Alpha-2":"-99"},"geometry":{"type":"Point","coordinates":[154.3899035,-21.029392]}},{"type":"Feature","properties":{"name":"Spratly Islands","ISO3166-1-Alpha-3":"-99","ISO3166-1-Alpha-2":"-99"},"geometry":{"type":"Point","coordinates":[115.82341550000001,10.7284205]}},{"type":"Feature","properties":{"name":"Clipperton Island","ISO3166-1-Alpha-3":"-99","ISO3166-1-Alpha-2":"-99"},"geometry":{"type":"Point","coordinates":[-109.22229949999999,10.296291499999999]}},{"type":"Feature","properties":{"name":"Macao S.A.R","ISO3166-1-Alpha-3":"MAC","ISO3166-1-Alpha-2":"MO"},"geometry":{"type":"Point","coordinates":[113.5598655,22.135606]}},{"type":"Feature","properties":{"name":"Ashmore and Cartier Islands","ISO3166-1-Alpha-3":"-99","ISO3166-1-Alpha-2":"-99"},"geometry":{"type":"Point","coordinates":[123.5863955,-12.4325905]}},{"type":"Feature","properties":{"name":"Bajo Nuevo Bank (Petrel Is.)","ISO3166-1-Alpha-3":"-99","ISO3166-1-Alpha-2":"-99"},"geometry":{"type":"Point","coordinates":[-79.9878435,15.795193000000001]}},{"type":"Feature","properties":{"name":"Serranilla Bank","ISO3166-1-Alpha-3":"-99","ISO3166-1-Alpha-2":"-99"},"geometry":{"type":"Point","coordinates":[-78.638641,15.8646915]}},{"type":"Feature","properties":{"name":"Scarborough Reef","ISO3166-1-Alpha-3":"-99","ISO3166-1-Alpha-2":"-99"},"geometry":{"type":"Point","coordinates":[117.75377399999999,15.1522255]}}]}